{
"type": "FeatureCollection",
"name": "gauging_stations",
"crs": { "type": "name", "properties": { "name": "urn:ogc:def:crs:EPSG::3035" } },
"features": [
{ "type": "Feature", "properties": { "id": 206, "id_station": "ADO_DSC_AT31_0206", "country": "Austria", "region": "Oberösterreich", "location_s": "Lambach (Traunbrücke)", "lat": 48.0900632, "lon": 13.87600537, "start_date": "1975-08-05 00:00:00", "end_date": "2016-12-31 00:00:00", "watercours": "Traun", "height_mas": 341.45, "catchment_": 2740.9, "source_id": "205468", "note_influ": null }, "geometry": { "type": "Point", "coordinates": [ 4609739.228701487183571, 2782742.960102915298194 ] } },
{ "type": "Feature", "properties": { "id": 254, "id_station": "ADO_DSC_AT31_0254", "country": "Austria", "region": "Oberösterreich", "location_s": "Wels-Lichtenegg (Summenstation)", "lat": 48.14101684, "lon": 13.99579292, "start_date": "1951-01-01 00:00:00", "end_date": "2016-12-31 00:00:00", "watercours": "Traun m.Welser Mühlbach", "height_mas": 309.0, "catchment_": 3387.1, "source_id": "206409", "note_influ": null }, "geometry": { "type": "Point", "coordinates": [ 4618354.431062093935907, 2788874.602050468791276 ] } },
{ "type": "Feature", "properties": { "id": 280, "id_station": "ADO_DSC_AT12_0280", "country": "Austria", "region": "Niederösterreich", "location_s": "Kienstock", "lat": 48.38228215, "lon": 15.46258165, "start_date": "1978-01-01 00:00:00", "end_date": "2016-12-31 00:00:00", "watercours": "Donau", "height_mas": 194.0, "catchment_": 95970.0, "source_id": "207357", "note_influ": null }, "geometry": { "type": "Point", "coordinates": [ 4725376.24741337262094, 2822619.417010466568172 ] } },
{ "type": "Feature", "properties": { "id": 607, "id_station": "ADO_DSC_SI03_0033", "country": "Slovenia", "region": "Vzhodna Slovenija", "location_s": "HE Dravograd", "lat": 46.58695904, "lon": 15.02349159, "start_date": "1965-01-01 00:00:00", "end_date": "2019-12-31 00:00:00", "watercours": "Drava", "height_mas": null, "catchment_": null, "source_id": null, "note_influ": null }, "geometry": { "type": "Point", "coordinates": [ 4706055.366806260310113, 2621209.750336153432727 ] } },
{ "type": "Feature", "properties": { "id": 729, "id_station": "ADO_DSC_SI03_0148", "country": "Slovenia", "region": "Vzhodna Slovenija", "location_s": "Videm", "lat": 46.36864982, "lon": 15.90787648, "start_date": "1946-01-01 00:00:00", "end_date": "2019-12-31 00:00:00", "watercours": "Dravinja", "height_mas": 209.04, "catchment_": null, "source_id": null, "note_influ": null }, "geometry": { "type": "Point", "coordinates": [ 4775547.939003725536168, 2602018.026481679175049 ] } },
{ "type": "Feature", "properties": { "id": 756, "id_station": "ADO_DSC_FRK2_0041", "country": "France", "region": "Rhône-Alpes", "location_s": "La Drôme à Saillans", "lat": 44.68989986, "lon": 5.208544273, "start_date": "1910-01-01 00:00:00", "end_date": "2021-09-26 00:00:00", "watercours": null, "height_mas": null, "catchment_": 1150.0, "source_id": "V4264010", "note_influ": "not or low" }, "geometry": { "type": "Point", "coordinates": [ 3940752.130525628570467, 2409825.022349156439304 ] } },
{ "type": "Feature", "properties": { "id": 807, "id_station": "ADO_DSC_FRK2_0042", "country": "France", "region": "Rhône-Alpes", "location_s": "Le Rhône à Viviers", "lat": 44.48131666, "lon": 4.700911105, "start_date": "1920-01-01 00:00:00", "end_date": "2017-12-31 00:00:00", "watercours": null, "height_mas": null, "catchment_": 70900.0, "source_id": "V4530010", "note_influ": "strong during low water period" }, "geometry": { "type": "Point", "coordinates": [ 3898984.706511772237718, 2389455.099591380916536 ] } },
{ "type": "Feature", "properties": { "id": 973, "id_station": "ADO_DSC_CH07_0006", "country": "Swizwerland", "region": "Ticino", "location_s": "Bellinzona", "lat": 46.19376452, "lon": 9.009287671, "start_date": "1911-01-02 00:00:00", "end_date": "2019-12-31 00:00:00", "watercours": null, "height_mas": 1679.0, "catchment_": 1517.0, "source_id": "2020", "note_influ": null }, "geometry": { "type": "Point", "coordinates": [ 4244437.250387079082429, 2565030.471398098394275 ] } },
{ "type": "Feature", "properties": { "id": 978, "id_station": "ADO_DSC_CH04_0011", "country": "Swizwerland", "region": "Zürich", "location_s": "Andelfingen", "lat": 47.59652082, "lon": 8.681974706, "start_date": "1904-01-02 00:00:00", "end_date": "2019-12-31 00:00:00", "watercours": null, "height_mas": 770.0, "catchment_": 1702.0, "source_id": "2044", "note_influ": null }, "geometry": { "type": "Point", "coordinates": [ 4221818.491398489102721, 2721205.856639594305307 ] } },
{ "type": "Feature", "properties": { "id": 1042, "id_station": "ADO_DSC_CH03_0075", "country": "Swizwerland", "region": "Nordwestschweiz", "location_s": "Basel Rheinhalle", "lat": 47.55942555, "lon": 7.61667542, "start_date": "02\/01\/1869  00:00:00", "end_date": "2019-12-31 00:00:00", "watercours": null, "height_mas": 1052.0, "catchment_": 35878.0, "source_id": "2289", "note_influ": null }, "geometry": { "type": "Point", "coordinates": [ 4141550.455231442116201, 2719090.415968434419483 ] } },
{ "type": "Feature", "properties": { "id": 1067, "id_station": "ADO_DSC_CH07_0100", "country": "Swizwerland", "region": "Ticino", "location_s": "Locarno Solduno", "lat": 46.16831994, "lon": 8.77358438, "start_date": "1970-01-02 00:00:00", "end_date": "2019-12-31 00:00:00", "watercours": null, "height_mas": 1530.0, "catchment_": 927.0, "source_id": "2368", "note_influ": null }, "geometry": { "type": "Point", "coordinates": [ 4226178.930473620072007, 2562477.313443083781749 ] } },
{ "type": "Feature", "properties": { "id": 1114, "id_station": "ADO_DSC_CH07_0147", "country": "Swizwerland", "region": "Ticino", "location_s": "Pollegio Campagna", "lat": 46.35930143, "lon": 8.947473095, "start_date": "1986-05-01 00:00:00", "end_date": "2018-11-30 00:00:00", "watercours": null, "height_mas": 1796.0, "catchment_": 444.0, "source_id": "2494", "note_influ": null }, "geometry": { "type": "Point", "coordinates": [ 4239910.704223296605051, 2583474.244408333674073 ] } },
{ "type": "Feature", "properties": { "id": 1152, "id_station": "ADO_DSC_CH05_0201", "country": "Swizwerland", "region": "Ostschweiz", "location_s": "HALDEN", "lat": 47.5058, "lon": 9.2116, "start_date": "1965-01-01 00:00:00", "end_date": "2016-12-31 00:00:00", "watercours": "Thur", "height_mas": null, "catchment_": 1085.0, "source_id": "6935401", "note_influ": null }, "geometry": { "type": "Point", "coordinates": [ 4261566.327521562576294, 2710559.420065603218973 ] } },
{ "type": "Feature", "properties": { "id": 1251, "id_station": "ADO_DSC_ITC1_0020", "country": "Italy", "region": "Piemonte", "location_s": "Casale Monferrato Po", "lat": 45.141817, "lon": 8.447651, "start_date": "2009-01-01 00:00:00", "end_date": "2019-12-31 00:00:00", "watercours": "Po", "height_mas": null, "catchment_": null, "source_id": null, "note_influ": null }, "geometry": { "type": "Point", "coordinates": [ 4198711.542238682508469, 2449038.362188539933413 ] } },
{ "type": "Feature", "properties": { "id": 1267, "id_station": "ADO_DSC_ITC1_0037", "country": "Italy", "region": "Piemonte", "location_s": "Isola S. Antonio Po", "lat": 45.036153, "lon": 8.821928, "start_date": "1996-01-02 00:00:00", "end_date": "2019-12-31 00:00:00", "watercours": "Po", "height_mas": null, "catchment_": null, "source_id": null, "note_influ": null }, "geometry": { "type": "Point", "coordinates": [ 4228016.239361993968487, 2436777.247867084108293 ] } },
{ "type": "Feature", "properties": { "id": 1301, "id_station": "ADO_DSC_ITC1_0072", "country": "Italy", "region": "Piemonte", "location_s": "San Benigno Orco", "lat": 45.246795, "lon": 7.80616, "start_date": "2002-01-07 00:00:00", "end_date": "2019-12-31 00:00:00", "watercours": null, "height_mas": null, "catchment_": null, "source_id": null, "note_influ": null }, "geometry": { "type": "Point", "coordinates": [ 4148517.850444902200252, 2461950.220683267340064 ] } },
{ "type": "Feature", "properties": { "id": 1360, "id_station": "ADO_DSC_ITH2_0035", "country": "Italy", "region": "Provincia Autonoma di Trento", "location_s": "Vò Destro", "lat": 45.735043, "lon": 10.957414, "start_date": "1994-07-27 00:00:00", "end_date": "2020-12-30 23:45:00", "watercours": "Adige", "height_mas": null, "catchment_": null, "source_id": null, "note_influ": null }, "geometry": { "type": "Point", "coordinates": [ 4395617.908779799938202, 2514077.752154554706067 ] } },
{ "type": "Feature", "properties": { "id": 1372, "id_station": "ADO_DSC_ITH1_0012", "country": "Italy", "region": "Provincia Autonoma di Bolzano\/Bozen", "location_s": "Etsch - Branzoll", "lat": 46.41377201, "lon": 11.31535647, "start_date": "1980-01-01 00:10:00", "end_date": "2021-07-21 00:00:00", "watercours": null, "height_mas": null, "catchment_": null, "source_id": null, "note_influ": null }, "geometry": { "type": "Point", "coordinates": [ 4422233.164482354186475, 2589844.294946752954274 ] } }
]
}
