{
  "type": "FeatureCollection",
  "name": "gauging_stations",
  "crs": { "type": "name", "properties": { "name": "urn:ogc:def:crs:EPSG::3035" } },
  "features": [
    { "type": "Feature", "properties": { "id": 206, "id_station": "ADO_DSC_AT31_0206", "country": "Austria", "region": "Oberösterreich", "location_s": "Lambach (Traunbrücke)", "lat": 48.0900632, "lon": 13.87600537, "start_date": "1975-08-05 00:00:00", "end_date": "2016-12-31 00:00:00", "watercours": "Traun", "height_mas": 341.45, "catchment_": 2740.9, "source_id": "205468", "note_influ": null }, "geometry": { "type": "Point", "coordinates": [13.87600537, 48.0900632] } },
    { "type": "Feature", "properties": { "id": 254, "id_station": "ADO_DSC_AT31_0254", "country": "Austria", "region": "Oberösterreich", "location_s": "Wels-Lichtenegg (Summenstation)", "lat": 48.14101684, "lon": 13.99579292, "start_date": "1951-01-01 00:00:00", "end_date": "2016-12-31 00:00:00", "watercours": "Traun m.Welser Mühlbach", "height_mas": 309.0, "catchment_": 3387.1, "source_id": "206409", "note_influ": null }, "geometry": { "type": "Point", "coordinates": [13.99579292, 48.14101684] } },
    { "type": "Feature", "properties": { "id": 280, "id_station": "ADO_DSC_AT12_0280", "country": "Austria", "region": "Niederösterreich", "location_s": "Kienstock", "lat": 48.38228215, "lon": 15.46258165, "start_date": "1978-01-01 00:00:00", "end_date": "2016-12-31 00:00:00", "watercours": "Donau", "height_mas": 194.0, "catchment_": 95970.0, "source_id": "207357", "note_influ": null }, "geometry": { "type": "Point", "coordinates": [15.46258165, 48.38228215] } },
    { "type": "Feature", "properties": { "id": 607, "id_station": "ADO_DSC_SI03_0033", "country": "Slovenia", "region": "Vzhodna Slovenija", "location_s": "HE Dravograd", "lat": 46.58695904, "lon": 15.02349159, "start_date": "1965-01-01 00:00:00", "end_date": "2019-12-31 00:00:00", "watercours": "Drava", "height_mas": null, "catchment_": null, "source_id": null, "note_influ": null }, "geometry": { "type": "Point", "coordinates": [15.02349159, 46.58695904] } },
    { "type": "Feature", "properties": { "id": 729, "id_station": "ADO_DSC_SI03_0148", "country": "Slovenia", "region": "Vzhodna Slovenija", "location_s": "Videm", "lat": 46.36864982, "lon": 15.90787648, "start_date": "1946-01-01 00:00:00", "end_date": "2019-12-31 00:00:00", "watercours": "Dravinja", "height_mas": 209.04, "catchment_": null, "source_id": null, "note_influ": null }, "geometry": { "type": "Point", "coordinates": [15.90787648, 46.36864982] } },
    { "type": "Feature", "properties": { "id": 756, "id_station": "ADO_DSC_FRK2_0041", "country": "France", "region": "Rhône-Alpes", "location_s": "La Drôme à Saillans", "lat": 44.68989986, "lon": 5.208544273, "start_date": "1910-01-01 00:00:00", "end_date": "2021-09-26 00:00:00", "watercours": null, "height_mas": null, "catchment_": 1150.0, "source_id": "V4264010", "note_influ": "not or low" }, "geometry": { "type": "Point", "coordinates": [5.2409825, 44.68989986] } },
    { "type": "Feature", "properties": { "id": 807, "id_station": "ADO_DSC_FRK2_0042", "country": "France", "region": "Rhône-Alpes", "location_s": "Le Rhône à Viviers", "lat": 44.48131666, "lon": 4.700911105, "start_date": "1920-01-01 00:00:00", "end_date": "2017-12-31 00:00:00", "watercours": null, "height_mas": null, "catchment_": 70900.0, "source_id": "V4530010", "note_influ": "strong during low water period" }, "geometry": { "type": "Point", "coordinates": [4.700911105, 44.48131666] } },
    { "type": "Feature", "properties": { "id": 973, "id_station": "ADO_DSC_CH07_0006", "country": "Swizwerland", "region": "Ticino", "location_s": "Bellinzona", "lat": 46.19376452, "lon": 9.009287671, "start_date": "1911-01-02 00:00:00", "end_date": "2019-12-31 00:00:00", "watercours": null, "height_mas": 1679.0, "catchment_": 1517.0, "source_id": "2020", "note_influ": null }, "geometry": { "type": "Point", "coordinates": [9.009287671, 46.19376452] } },
    { "type": "Feature", "properties": { "id": 978, "id_station": "ADO_DSC_CH04_0011", "country": "Swizwerland", "region": "Zürich", "location_s": "Andelfingen", "lat": 47.59652082, "lon": 8.681974706, "start_date": "1904-01-02 00:00:00", "end_date": "2019-12-31 00:00:00", "watercours": null, "height_mas": 770.0, "catchment_": 1702.0, "source_id": "2044", "note_influ": null }, "geometry": { "type": "Point", "coordinates": [8.681974706, 47.59652082] } },
    { "type": "Feature", "properties": { "id": 1042, "id_station": "ADO_DSC_CH03_0075", "country": "Swizwerland", "region": "Nordwestschweiz", "location_s": "Basel Rheinhalle", "lat": 47.55942555, "lon": 7.61667542, "start_date": "02\/01\/1869  00:00:00", "end_date": "2019-12-31 00:00:00", "watercours": null, "height_mas": 1052.0, "catchment_": 35878.0, "source_id": "2289", "note_influ": null }, "geometry": { "type": "Point", "coordinates": [7.61667542, 47.55942555] } },
    { "type": "Feature", "properties": { "id": 1067, "id_station": "ADO_DSC_CH07_0100", "country": "Swizwerland", "region": "Ticino", "location_s": "Locarno Solduno", "lat": 46.16831994, "lon": 8.77358438, "start_date": "1970-01-02 00:00:00", "end_date": "2019-12-31 00:00:00", "watercours": null, "height_mas": 1530.0, "catchment_": 927.0, "source_id": "2368", "note_influ": null }, "geometry": { "type": "Point", "coordinates": [8.77358438, 46.16831994] } },
    { "type": "Feature", "properties": { "id": 1114, "id_station": "ADO_DSC_CH07_0147", "country": "Swizwerland", "region": "Ticino", "location_s": "Pollegio Campagna", "lat": 46.35930143, "lon": 8.947473095, "start_date": "1986-05-01 00:00:00", "end_date": "2018-11-30 00:00:00", "watercours": null, "height_mas": 1796.0, "catchment_": 444.0, "source_id": "2494", "note_influ": null }, "geometry": { "type": "Point", "coordinates": [8.947473095, 46.35930143] } },
    { "type": "Feature", "properties": { "id": 1152, "id_station": "ADO_DSC_CH05_0201", "country": "Swizwerland", "region": "Ostschweiz", "location_s": "HALDEN", "lat": 47.5058, "lon": 9.2116, "start_date": "1965-01-01 00:00:00", "end_date": "2016-12-31 00:00:00", "watercours": "Thur", "height_mas": null, "catchment_": 1085.0, "source_id": "6935401", "note_influ": null }, "geometry": { "type": "Point", "coordinates": [9.2116, 47.5058] } },
    { "type": "Feature", "properties": { "id": 1251, "id_station": "ADO_DSC_ITC1_0020", "country": "Italy", "region": "Piemonte", "location_s": "Casale Monferrato Po", "lat": 45.141817, "lon": 8.447651, "start_date": "2009-01-01 00:00:00", "end_date": "2019-12-31 00:00:00", "watercours": "Po", "height_mas": null, "catchment_": null, "source_id": null, "note_influ": null }, "geometry": { "type": "Point", "coordinates": [8.447651, 45.141817] } },
    { "type": "Feature", "properties": { "id": 1267, "id_station": "ADO_DSC_ITC1_0037", "country": "Italy", "region": "Piemonte", "location_s": "Isola S. Antonio Po", "lat": 45.036153, "lon": 8.821928, "start_date": "1996-01-02 00:00:00", "end_date": "2019-12-31 00:00:00", "watercours": "Po", "height_mas": null, "catchment_": null, "source_id": null, "note_influ": null }, "geometry": { "type": "Point", "coordinates": [8.821928, 45.036153] } },
    { "type": "Feature", "properties": { "id": 1301, "id_station": "ADO_DSC_ITC1_0072", "country": "Italy", "region": "Piemonte", "location_s": "San Benigno Orco", "lat": 45.246795, "lon": 7.80616, "start_date": "2002-01-07 00:00:00", "end_date": "2019-12-31 00:00:00", "watercours": null, "height_mas": null, "catchment_": null, "source_id": null, "note_influ": null }, "geometry": { "type": "Point", "coordinates": [7.80616, 45.246795] } },
    { "type": "Feature", "properties": { "id": 1360, "id_station": "ADO_DSC_ITH2_0035", "country": "Italy", "region": "Provincia Autonoma di Trento", "location_s": "Vò Destro", "lat": 45.735043, "lon": 10.957414, "start_date": "1994-07-27 00:00:00", "end_date": "2020-12-30 23:45:00", "watercours": "Adige", "height_mas": null, "catchment_": null, "source_id": null, "note_influ": null }, "geometry": { "type": "Point", "coordinates": [10.957414, 45.735043] } },
    { "type": "Feature", "properties": { "id": 1372, "id_station": "ADO_DSC_ITH1_0012", "country": "Italy", "region": "Provincia Autonoma di Bolzano\/Bozen", "location_s": "Etsch - Branzoll", "lat": 46.41377201, "lon": 11.31535647, "start_date": "1980-01-01 00:10:00", "end_date": "2021-07-21 00:00:00", "watercours": null, "height_mas": null, "catchment_": null, "source_id": null, "note_influ": null }, "geometry": { "type": "Point", "coordinates": [11.31535647, 46.41377201] } }
  ]
}
